[
  {
    "name": "Alliance High School",
    "nemisCode": "AHS001",
    "type": "SECONDARY",
    "level": "NATIONAL",
    "county": "Kiambu",
    "subCounty": "Kikuyu",
    "location": "Kikuyu, Kiambu County",
    "active": true
  },
  {
    "name": "Mangu High School",
    "nemisCode": "MHS001",
    "type": "SECONDARY",
    "level": "NATIONAL",
    "county": "Kiambu",
    "subCounty": "Thika",
    "location": "Thika, Kiambu County",
    "active": true
  },
  {
    "name": "Starehe Boys Centre",
    "nemisCode": "SBC001",
    "type": "SECONDARY",
    "level": "NATIONAL",
    "county": "Nairobi",
    "location": "Nairobi",
    "active": true
  },
  {
    "name": "Kenya High School",
    "nemisCode": "KHS001",
    "type": "SECONDARY",
    "level": "NATIONAL",
    "county": "Nairobi",
    "location": "Nairobi",
    "active": true
  },
  {
    "name": "Nairobi School",
    "nemisCode": "NS001",
    "type": "SECONDARY",
    "level": "NATIONAL",
    "county": "Nairobi",
    "location": "Nairobi",
    "active": true
  },
  {
    "name": "Moi Girls Eldoret",
    "nemisCode": "MGE001",
    "type": "SECONDARY",
    "level": "NATIONAL",
    "county": "Uasin Gishu",
    "location": "Eldoret",
    "active": true
  },
  {
    "name": "Moi Girls Nairobi",
    "nemisCode": "MGN001",
    "type": "SECONDARY",
    "level": "NATIONAL",
    "county": "Nairobi",
    "location": "Nairobi",
    "active": true
  },
  {
    "name": "Kisumu Day Secondary",
    "nemisCode": "KDS001",
    "type": "SECONDARY",
    "level": "COUNTY",
    "county": "Kisumu",
    "location": "Kisumu",
    "active": true
  },
  {
    "name": "Maseno School",
    "nemisCode": "MS001",
    "type": "SECONDARY",
    "level": "NATIONAL",
    "county": "Kisumu",
    "location": "Maseno, Kisumu County",
    "active": true
  },
  {
    "name": "St. Mary's School Yala",
    "nemisCode": "SMSY001",
    "type": "SECONDARY",
    "level": "NATIONAL",
    "county": "Siaya",
    "location": "Yala, Siaya County",
    "active": true
  },
  {
    "name": "Friends School Kamusinga",
    "nemisCode": "FSK001",
    "type": "SECONDARY",
    "level": "NATIONAL",
    "county": "Bungoma",
    "location": "Bungoma County",
    "active": true
  },
  {
    "name": "Maranda High School",
    "nemisCode": "MHS002",
    "type": "SECONDARY",
    "level": "NATIONAL",
    "county": "Siaya",
    "location": "Siaya County",
    "active": true
  },
  {
    "name": "Kisii High School",
    "nemisCode": "KHS002",
    "type": "SECONDARY",
    "level": "NATIONAL",
    "county": "Kisii",
    "location": "Kisii County",
    "active": true
  },
  {
    "name": "Moi Forces Academy",
    "nemisCode": "MFA001",
    "type": "SECONDARY",
    "level": "NATIONAL",
    "county": "Nairobi",
    "location": "Nairobi",
    "active": true
  },
  {
    "name": "Lenana School",
    "nemisCode": "LS001",
    "type": "SECONDARY",
    "level": "NATIONAL",
    "county": "Nairobi",
    "location": "Nairobi",
    "active": true
  },
  {
    "name": "Nakuru High School",
    "nemisCode": "NHS001",
    "type": "SECONDARY",
    "level": "COUNTY",
    "county": "Nakuru",
    "location": "Nakuru",
    "active": true
  },
  {
    "name": "Mombasa High School",
    "nemisCode": "MHS003",
    "type": "SECONDARY",
    "level": "COUNTY",
    "county": "Mombasa",
    "location": "Mombasa",
    "active": true
  },
  {
    "name": "Jamhuri High School",
    "nemisCode": "JHS001",
    "type": "SECONDARY",
    "level": "NATIONAL",
    "county": "Nairobi",
    "location": "Nairobi",
    "active": true
  },
  {
    "name": "Agoro Sare High School",
    "nemisCode": "ASHS001",
    "type": "SECONDARY",
    "level": "NATIONAL",
    "county": "Migori",
    "location": "Migori County",
    "active": true
  },
  {
    "name": "Kagumo High School",
    "nemisCode": "KGHS001",
    "type": "SECONDARY",
    "level": "NATIONAL",
    "county": "Nyeri",
    "location": "Nyeri County",
    "active": true
  }
]
